Name,Latitude,Longitude
Wellington Street East & Wyndham Street South,43.5428399,-80.2435475
Eramosa Road & Stevenson Street North,43.5598377,-80.24898
Speedvale Avenue West & Dawson Road,43.5498904,-80.2799822
Imperial Road North & Willow Road,43.5286178,-80.2918966
Scottsdale Drive & Stone Road West,43.515587,-80.2395883
Clair Road East & Gordon Street,43.5003157,-80.1891164